{"type": "FeatureCollection", "features": [{"type": "Feature", "geometry": {"type": "Point", "coordinates": "[10.8214081, 106.6934208]"}, "properties": {"name": "C\u00f4ng Ty C\u1ed5 Ph\u1ea7n TYGITS", "address": "10 Tr\u1ea7n Qu\u1ed1c Tu\u1ea5n, Ph\u01b0\u1eddng 1, G\u00f2 V\u1ea5p"}}, {"type": "Feature", "geometry": {"type": "Point", "coordinates": "[10.8102794, 106.6961292]"}, "properties": {"name": "\u00danu Qu\u00e1n", "address": "140H Phan V\u0103n Tr\u1ecb, Ph\u01b0\u1eddng 12, B\u00ecnh Th\u1ea1nh"}}, {"type": "Feature", "geometry": {"type": "Point", "coordinates": "[10.8113889, 106.6958333]"}, "properties": {"name": "KFC No Trang Long", "address": "170A N\u01a1 Trang Long, Ph\u01b0\u1eddng 12, B\u00ecnh Th\u1ea1nh"}}, {"type": "Feature", "geometry": {"type": "Point", "coordinates": "[10.8171064, 106.6939605]"}, "properties": {"name": "C\u00f4ng Ty TNHH TMDV Huy Gia Ph\u01b0\u01a1ng", "address": "92 Nguy\u00ean H\u1ed3ng, Ph\u01b0\u1eddng 11, B\u00ecnh Th\u1ea1nh"}}, {"type": "Feature", "geometry": {"type": "Point", "coordinates": "[10.8196157, 106.7027015]"}, "properties": {"name": "\u1ea8m th\u1ef1c chay Hu\u1ec7 T\u00e2m", "address": "361 N\u01a1 Trang Long, B\u00ecnh Th\u1ea1nh"}}, {"type": "Feature", "geometry": {"type": "Point", "coordinates": "[10.8153589, 106.6887715]"}, "properties": {"name": "Viet Huong Restaurant - Grilled chickens in clay pots", "address": "449A3 L\u00ea Quang \u0110\u1ecbnh, Ph\u01b0\u1eddng 5, B\u00ecnh Th\u1ea1nh"}}, {"type": "Feature", "geometry": {"type": "Point", "coordinates": "[10.8086002, 106.7010168]"}, "properties": {"name": "Qu\u00e1n \u0102n 60", "address": "60s Ng\u00f4 \u0110\u1ee9c K\u1ebf, Ph\u01b0\u1eddng 12, B\u00ecnh Th\u1ea1nh"}}, {"type": "Feature", "geometry": {"type": "Point", "coordinates": "[10.8157463, 106.6957765]"}, "properties": {"name": "B\u00ecnh \u0110\u1ecbnh Qu\u00e1n", "address": "33, Tr\u1ea7n Qu\u00fd C\u00e1p, Ph\u01b0\u1eddng 12, Qu\u1eadn B\u00ecnh Th\u1ea1nh, Ph\u01b0\u1eddng 11, B\u00ecnh Th\u1ea1nh"}}, {"type": "Feature", "geometry": {"type": "Point", "coordinates": "[10.8153836, 106.6924442]"}, "properties": {"name": "V\u00fa Heo N\u01b0\u1edbng - Nguy\u1ec5n V\u0103n \u0110\u1eadu", "address": "B\u00ecnh Th\u1ea1nh"}}, {"type": "Feature", "geometry": {"type": "Point", "coordinates": "[10.8187746, 106.6948175]"}, "properties": {"name": "ANKAIZI-B\u00e1nh b\u1ea1ch tu\u1ed9c", "address": "334 Phan V\u0103n Tr\u1ecb, Ph\u01b0\u1eddng 11, B\u00ecnh Th\u1ea1nh"}}, {"type": "Feature", "geometry": {"type": "Point", "coordinates": "[10.815907, 106.697738]"}, "properties": {"name": "Qu\u00e1n \u0103n M\u00f3n M\u1eafm Tr\u00ed H\u1ea3i", "address": "219E N\u01a1 Trang Long, Ph\u01b0\u1eddng 11, B\u00ecnh Th\u1ea1nh"}}, {"type": "Feature", "geometry": {"type": "Point", "coordinates": "[10.8156846, 106.6980702]"}, "properties": {"name": "Jolie Bakery Cafe", "address": "290 N\u01a1 Trang Long, Ph\u01b0\u1eddng 12, B\u00ecnh Th\u1ea1nh"}}, {"type": "Feature", "geometry": {"type": "Point", "coordinates": "[10.8195771, 106.6914504]"}, "properties": {"name": "Bia \u0110\u1ee9c Paderborner", "address": "328 Ph\u1ea1m V\u0103n \u0110\u1ed3ng, Ph\u01b0\u1eddng 1, G\u00f2 V\u1ea5p"}}, {"type": "Feature", "geometry": {"type": "Point", "coordinates": "[10.8139003, 106.6898256]"}, "properties": {"name": "Qu\u00e1n H\u1ee7 Ti\u1ebfu M\u1ef9 Tho X\u01b0a", "address": "476 L\u00ea Quang \u0110\u1ecbnh, Ph\u01b0\u1eddng 11, B\u00ecnh Th\u1ea1nh"}}, {"type": "Feature", "geometry": {"type": "Point", "coordinates": "[10.8117966, 106.6920889]"}, "properties": {"name": "Qu\u00e1n B\u00e1nh X\u00e8o G\u1ed1c Qu\u1ea3ng", "address": "323/8 L\u00ea Quang \u0110\u1ecbnh, Ph\u01b0\u1eddng 5, B\u00ecnh Th\u1ea1nh"}}, {"type": "Feature", "geometry": {"type": "Point", "coordinates": "[10.8208287, 106.6963355]"}, "properties": {"name": "Nh\u00e0 H\u00e0ng PH\u1ed0 \u0110\u00caM", "address": "346 Ph\u1ea1m V\u0103n \u0110\u1ed3ng, Ph\u01b0\u1eddng 1, B\u00ecnh Th\u1ea1nh"}}, {"type": "Feature", "geometry": {"type": "Point", "coordinates": "[10.8186536, 106.6892932]"}, "properties": {"name": "Banh Mi Bot Loc Hue Restaurant", "address": "519 L\u00ea Quang \u0110\u1ecbnh, Ph\u01b0\u1eddng 1, G\u00f2 V\u1ea5p"}}, {"type": "Feature", "geometry": {"type": "Point", "coordinates": "[10.8159348, 106.6885594]"}, "properties": {"name": "B\u00fan Th\u1ecbt N\u01b0\u1edbng Ph\u01b0\u1edbc S\u01a1n", "address": "463 L\u00ea Quang \u0110\u1ecbnh, Ph\u01b0\u1eddng 1, G\u00f2 V\u1ea5p"}}, {"type": "Feature", "geometry": {"type": "Point", "coordinates": "[10.818769, 106.6991094]"}, "properties": {"name": "alibabon", "address": "283 N\u01a1 Trang Long, Ph\u01b0\u1eddng 13, B\u00ecnh Th\u1ea1nh"}}, {"type": "Feature", "geometry": {"type": "Point", "coordinates": "[10.8188683, 106.6891086]"}, "properties": {"name": "Squid Noodle - Ong Gia Cali", "address": "288 Ph\u1ea1m V\u0103n \u0110\u1ed3ng, Ph\u01b0\u1eddng 1, G\u00f2 V\u1ea5p"}}]}